---
header: 
  seq: 17148
  stamp: 
    secs: 344
    nsecs: 220000000
  frame_id: ''
pose: 
  position: 
    x: 0.704066363499
    y: 0.150544866211
    z: -0.0106013575079
  orientation: 
    x: -0.0276256744077
    y: 0.999593203358
    z: 0.00532572738593
    w: 0.00467830543118
twist: 
  linear: 
    x: 0.0
    y: 0.0
    z: 0.0
  angular: 
    x: 0.0
    y: 0.0
    z: 0.0
wrench: 
  force: 
    x: 0.0
    y: 0.0
    z: 0.0
  torque: 
    x: 0.0
    y: 0.0
    z: 0.0
---
header: 
  seq: 17149
  stamp: 
    secs: 344
    nsecs: 240000000
  frame_id: ''
pose: 
  position: 
    x: 0.703498978881
    y: 0.150459379165
    z: -0.00937579611179
  orientation: 
    x: -0.0283731872698
    y: 0.999574766732
    z: 0.00527254778149
    w: 0.00417710395994
twist: 
  linear: 
    x: 0.0
    y: 0.0
    z: 0.0
  angular: 
    x: 0.0
    y: 0.0
    z: 0.0
wrench: 
  force: 
    x: 0.0
    y: 0.0
    z: 0.0
  torque: 
    x: 0.0
    y: 0.0
    z: 0.0
---
header: 
  seq: 17150
  stamp: 
    secs: 344
    nsecs: 260000000
  frame_id: ''
pose: 
  position: 
    x: 0.70475847505
    y: 0.150337178785
    z: -0.00851598822608
  orientation: 
    x: -0.0278152943673
    y: 0.999584703614
    z: 0.00502131675368
    w: 0.00561391827942
twist: 
  linear: 
    x: 0.0
    y: 0.0
    z: 0.0
  angular: 
    x: 0.0
    y: 0.0
    z: 0.0
wrench: 
  force: 
    x: 0.0
    y: 0.0
    z: 0.0
  torque: 
    x: 0.0
    y: 0.0
    z: 0.0
---
header: 
  seq: 17151
  stamp: 
    secs: 344
    nsecs: 280000000
  frame_id: ''
pose: 
  position: 
    x: 0.704708404737
    y: 0.150528336513
    z: -0.00760383633455
  orientation: 
    x: -0.0275949287044
    y: 0.999589368834
    z: 0.00529027096243
    w: 0.00562375832698
twist: 
  linear: 
    x: 0.0
    y: 0.0
    z: 0.0
  angular: 
    x: 0.0
    y: 0.0
    z: 0.0
wrench: 
  force: 
    x: 0.0
    y: 0.0
    z: 0.0
  torque: 
    x: 0.0
    y: 0.0
    z: 0.0
---
header: 
  seq: 17152
  stamp: 
    secs: 344
    nsecs: 300000000
  frame_id: ''
pose: 
  position: 
    x: 0.703528644914
    y: 0.150494928298
    z: -0.00684396784874
  orientation: 
    x: -0.0281214362671
    y: 0.999580685069
    z: 0.00530732852576
    w: 0.0044126094762
twist: 
  linear: 
    x: 0.0
    y: 0.0
    z: 0.0
  angular: 
    x: 0.0
    y: 0.0
    z: 0.0
wrench: 
  force: 
    x: 0.0
    y: 0.0
    z: 0.0
  torque: 
    x: 0.0
    y: 0.0
    z: 0.0
---
header: 
  seq: 17153
  stamp: 
    secs: 344
    nsecs: 320000000
  frame_id: ''
pose: 
  position: 
    x: 0.70355993778
    y: 0.150522896182
    z: -0.00621074937948
  orientation: 
    x: -0.0277713101913
    y: 0.999589527643
    z: 0.00533648656872
    w: 0.00458829682222
twist: 
  linear: 
    x: 0.0
    y: 0.0
    z: 0.0
  angular: 
    x: 0.0
    y: 0.0
    z: 0.0
wrench: 
  force: 
    x: 0.0
    y: 0.0
    z: 0.0
  torque: 
    x: 0.0
    y: 0.0
    z: 0.0
---
header: 
  seq: 17154
  stamp: 
    secs: 344
    nsecs: 340000000
  frame_id: ''
pose: 
  position: 
    x: 0.704051581929
    y: 0.150636829103
    z: -0.0052828307286
  orientation: 
    x: -0.0276268707448
    y: 0.999590319675
    z: 0.00544570146275
    w: 0.00512768571767
twist: 
  linear: 
    x: 0.0
    y: 0.0
    z: 0.0
  angular: 
    x: 0.0
    y: 0.0
    z: 0.0
wrench: 
  force: 
    x: 0.0
    y: 0.0
    z: 0.0
  torque: 
    x: 0.0
    y: 0.0
    z: 0.0
---
header: 
  seq: 17155
  stamp: 
    secs: 344
    nsecs: 360000000
  frame_id: ''
pose: 
  position: 
    x: 0.703936628265
    y: 0.150418303032
    z: -0.00424081000536
  orientation: 
    x: -0.0277189860117
    y: 0.99958937963
    z: 0.00520910587488
    w: 0.00505916608038
twist: 
  linear: 
    x: 0.0
    y: 0.0
    z: 0.0
  angular: 
    x: 0.0
    y: 0.0
    z: 0.0
wrench: 
  force: 
    x: 0.0
    y: 0.0
    z: 0.0
  torque: 
    x: 0.0
    y: 0.0
    z: 0.0
---
header: 
  seq: 17156
  stamp: 
    secs: 344
    nsecs: 380000000
  frame_id: ''
pose: 
  position: 
    x: 0.703908160851
    y: 0.150374852853
    z: -0.00356810008009
  orientation: 
    x: -0.0278529467972
    y: 0.999585348387
    z: 0.00511784081556
    w: 0.00521079178312
twist: 
  linear: 
    x: 0.0
    y: 0.0
    z: 0.0
  angular: 
    x: 0.0
    y: 0.0
    z: 0.0
wrench: 
  force: 
    x: 0.0
    y: 0.0
    z: 0.0
  torque: 
    x: 0.0
    y: 0.0
    z: 0.0
---
header: 
  seq: 17157
  stamp: 
    secs: 344
    nsecs: 400000000
  frame_id: ''
pose: 
  position: 
    x: 0.703489699192
    y: 0.15070230138
    z: -0.00278778098527
  orientation: 
    x: -0.0274121503942
    y: 0.999597275498
    z: 0.00562363713931
    w: 0.0047154568947
twist: 
  linear: 
    x: 0.0
    y: 0.0
    z: 0.0
  angular: 
    x: 0.0
    y: 0.0
    z: 0.0
wrench: 
  force: 
    x: 0.0
    y: 0.0
    z: 0.0
  torque: 
    x: 0.0
    y: 0.0
    z: 0.0
---
header: 
  seq: 17158
  stamp: 
    secs: 344
    nsecs: 420000000
  frame_id: ''
pose: 
  position: 
    x: 0.703680511994
    y: 0.150519188012
    z: -0.00222598839305
  orientation: 
    x: -0.0276631903018
    y: 0.999590567898
    z: 0.00531029708075
    w: 0.00502446180502
twist: 
  linear: 
    x: 0.0
    y: 0.0
    z: 0.0
  angular: 
    x: 0.0
    y: 0.0
    z: 0.0
wrench: 
  force: 
    x: 0.0
    y: 0.0
    z: 0.0
  torque: 
    x: 0.0
    y: 0.0
    z: 0.0
---
header: 
  seq: 17159
  stamp: 
    secs: 344
    nsecs: 440000000
  frame_id: ''
pose: 
  position: 
    x: 0.703509902238
    y: 0.150508714607
    z: -0.00139734765877
  orientation: 
    x: -0.0275498059419
    y: 0.999594006257
    z: 0.00536535422628
    w: 0.00490344990921
twist: 
  linear: 
    x: 0.0
    y: 0.0
    z: 0.0
  angular: 
    x: 0.0
    y: 0.0
    z: 0.0
wrench: 
  force: 
    x: 0.0
    y: 0.0
    z: 0.0
  torque: 
    x: 0.0
    y: 0.0
    z: 0.0
---
header: 
  seq: 17160
  stamp: 
    secs: 344
    nsecs: 460000000
  frame_id: ''
pose: 
  position: 
    x: 0.70331703156
    y: 0.150606740324
    z: -0.000561767296893
  orientation: 
    x: -0.0275448516992
    y: 0.999593746472
    z: 0.00553033413807
    w: 0.00479985035814
twist: 
  linear: 
    x: 0.0
    y: 0.0
    z: 0.0
  angular: 
    x: 0.0
    y: 0.0
    z: 0.0
wrench: 
  force: 
    x: 0.0
    y: 0.0
    z: 0.0
  torque: 
    x: 0.0
    y: 0.0
    z: 0.0
---
header: 
  seq: 17161
  stamp: 
    secs: 344
    nsecs: 480000000
  frame_id: ''
pose: 
  position: 
    x: 0.703560186124
    y: 0.150553913058
    z: 0.000124606593888
  orientation: 
    x: -0.0274971841992
    y: 0.999594136044
    z: 0.00542716328474
    w: 0.00510038694983
twist: 
  linear: 
    x: 0.0
    y: 0.0
    z: 0.0
  angular: 
    x: 0.0
    y: 0.0
    z: 0.0
wrench: 
  force: 
    x: 0.0
    y: 0.0
    z: 0.0
  torque: 
    x: 0.0
    y: 0.0
    z: 0.0
---
header: 
  seq: 17162
  stamp: 
    secs: 344
    nsecs: 500000000
  frame_id: ''
pose: 
  position: 
    x: 0.703549343151
    y: 0.150530657226
    z: 0.000768839293334
  orientation: 
    x: -0.0273599540135
    y: 0.999597670152
    z: 0.00539567521025
    w: 0.00517855494231
twist: 
  linear: 
    x: 0.0
    y: 0.0
    z: 0.0
  angular: 
    x: 0.0
    y: 0.0
    z: 0.0
wrench: 
  force: 
    x: 0.0
    y: 0.0
    z: 0.0
  torque: 
    x: 0.0
    y: 0.0
    z: 0.0
---
header: 
  seq: 17163
  stamp: 
    secs: 344
    nsecs: 520000000
  frame_id: ''
pose: 
  position: 
    x: 0.703147877442
    y: 0.150605412847
    z: 0.00138584615843
  orientation: 
    x: -0.027476240819
    y: 0.999595718099
    z: 0.00553456017074
    w: 0.00477757189385
twist: 
  linear: 
    x: 0.0
    y: 0.0
    z: 0.0
  angular: 
    x: 0.0
    y: 0.0
    z: 0.0
wrench: 
  force: 
    x: 0.0
    y: 0.0
    z: 0.0
  torque: 
    x: 0.0
    y: 0.0
    z: 0.0
---
header: 
  seq: 17164
  stamp: 
    secs: 344
    nsecs: 540000000
  frame_id: ''
pose: 
  position: 
    x: 0.703137488941
    y: 0.150631718691
    z: 0.00190935348555
  orientation: 
    x: -0.0273752531214
    y: 0.999597872157
    z: 0.00555431842965
    w: 0.00488252416552
twist: 
  linear: 
    x: 0.0
    y: 0.0
    z: 0.0
  angular: 
    x: 0.0
    y: 0.0
    z: 0.0
wrench: 
  force: 
    x: 0.0
    y: 0.0
    z: 0.0
  torque: 
    x: 0.0
    y: 0.0
    z: 0.0
---
header: 
  seq: 17165
  stamp: 
    secs: 344
    nsecs: 560000000
  frame_id: ''
pose: 
  position: 
    x: 0.703224189043
    y: 0.150628235124
    z: 0.00251550588769
  orientation: 
    x: -0.0273226543082
    y: 0.999598739987
    z: 0.00552395138724
    w: 0.00503165369159
twist: 
  linear: 
    x: 0.0
    y: 0.0
    z: 0.0
  angular: 
    x: 0.0
    y: 0.0
    z: 0.0
wrench: 
  force: 
    x: 0.0
    y: 0.0
    z: 0.0
  torque: 
    x: 0.0
    y: 0.0
    z: 0.0
---
header: 
  seq: 17166
  stamp: 
    secs: 344
    nsecs: 580000000
  frame_id: ''
pose: 
  position: 
    x: 0.703072614422
    y: 0.150570441693
    z: 0.0032117508429
  orientation: 
    x: -0.0272839980462
    y: 0.999600858389
    z: 0.00549019221224
    w: 0.00485439473655
twist: 
  linear: 
    x: 0.0
    y: 0.0
    z: 0.0
  angular: 
    x: 0.0
    y: 0.0
    z: 0.0
wrench: 
  force: 
    x: 0.0
    y: 0.0
    z: 0.0
  torque: 
    x: 0.0
    y: 0.0
    z: 0.0
---
header: 
  seq: 17167
  stamp: 
    secs: 344
    nsecs: 600000000
  frame_id: ''
pose: 
  position: 
    x: 0.703031337898
    y: 0.150608179126
    z: 0.003863701678
  orientation: 
    x: -0.0272742949177
    y: 0.999600262994
    z: 0.00555135682645
    w: 0.00496079602112
twist: 
  linear: 
    x: 0.0
    y: 0.0
    z: 0.0
  angular: 
    x: 0.0
    y: 0.0
    z: 0.0
wrench: 
  force: 
    x: 0.0
    y: 0.0
    z: 0.0
  torque: 
    x: 0.0
    y: 0.0
    z: 0.0
---
header: 
  seq: 17168
  stamp: 
    secs: 344
    nsecs: 620000000
  frame_id: ''
pose: 
  position: 
    x: 0.703004882453
    y: 0.150653001235
    z: 0.00448598323502
  orientation: 
    x: -0.0272426579422
    y: 0.99960053493
    z: 0.00563826528424
    w: 0.00498177877286
twist: 
  linear: 
    x: 0.0
    y: 0.0
    z: 0.0
  angular: 
    x: 0.0
    y: 0.0
    z: 0.0
wrench: 
  force: 
    x: 0.0
    y: 0.0
    z: 0.0
  torque: 
    x: 0.0
    y: 0.0
    z: 0.0
---
header: 
  seq: 17169
  stamp: 
    secs: 344
    nsecs: 640000000
  frame_id: ''
pose: 
  position: 
    x: 0.703008984319
    y: 0.150598641166
    z: 0.00501395025895
  orientation: 
    x: -0.0271899429853
    y: 0.999602201307
    z: 0.00555564350637
    w: 0.00502801835206
twist: 
  linear: 
    x: 0.0
    y: 0.0
    z: 0.0
  angular: 
    x: 0.0
    y: 0.0
    z: 0.0
wrench: 
  force: 
    x: 0.0
    y: 0.0
    z: 0.0
  torque: 
    x: 0.0
    y: 0.0
    z: 0.0
---
header: 
  seq: 17170
  stamp: 
    secs: 344
    nsecs: 660000000
  frame_id: ''
pose: 
  position: 
    x: 0.702850040195
    y: 0.150629362708
    z: 0.00552952253739
  orientation: 
    x: -0.027161316989
    y: 0.999603146336
    z: 0.00559771794227
    w: 0.00494754980069
twist: 
  linear: 
    x: 0.0
    y: 0.0
    z: 0.0
  angular: 
    x: 0.0
    y: 0.0
    z: 0.0
wrench: 
  force: 
    x: 0.0
    y: 0.0
    z: 0.0
  torque: 
    x: 0.0
    y: 0.0
    z: 0.0
---
header: 
  seq: 17171
  stamp: 
    secs: 344
    nsecs: 680000000
  frame_id: ''
pose: 
  position: 
    x: 0.702695741638
    y: 0.150668682514
    z: 0.00603561638834
  orientation: 
    x: -0.0271288354342
    y: 0.999604282776
    z: 0.00568410758274
    w: 0.00479531688534
twist: 
  linear: 
    x: 0.0
    y: 0.0
    z: 0.0
  angular: 
    x: 0.0
    y: 0.0
    z: 0.0
wrench: 
  force: 
    x: 0.0
    y: 0.0
    z: 0.0
  torque: 
    x: 0.0
    y: 0.0
    z: 0.0
---
header: 
  seq: 17172
  stamp: 
    secs: 344
    nsecs: 700000000
  frame_id: ''
pose: 
  position: 
    x: 0.702757020468
    y: 0.150649351711
    z: 0.00653599229282
  orientation: 
    x: -0.0271039699665
    y: 0.999604390326
    z: 0.00562499468764
    w: 0.00497966742427
twist: 
  linear: 
    x: 0.0
    y: 0.0
    z: 0.0
  angular: 
    x: 0.0
    y: 0.0
    z: 0.0
wrench: 
  force: 
    x: 0.0
    y: 0.0
    z: 0.0
  torque: 
    x: 0.0
    y: 0.0
    z: 0.0
---
header: 
  seq: 17173
  stamp: 
    secs: 344
    nsecs: 720000000
  frame_id: ''
pose: 
  position: 
    x: 0.702647023752
    y: 0.150653876514
    z: 0.00712382347637
  orientation: 
    x: -0.0270444283212
    y: 0.999606271505
    z: 0.0056798726525
    w: 0.00486208912588
twist: 
  linear: 
    x: 0.0
    y: 0.0
    z: 0.0
  angular: 
    x: 0.0
    y: 0.0
    z: 0.0
wrench: 
  force: 
    x: 0.0
    y: 0.0
    z: 0.0
  torque: 
    x: 0.0
    y: 0.0
    z: 0.0
---
header: 
  seq: 17174
  stamp: 
    secs: 344
    nsecs: 740000000
  frame_id: ''
pose: 
  position: 
    x: 0.702678937302
    y: 0.150623641453
    z: 0.00758413874427
  orientation: 
    x: -0.0270789465084
    y: 0.999605033134
    z: 0.0056405773782
    w: 0.00496913229758
twist: 
  linear: 
    x: 0.0
    y: 0.0
    z: 0.0
  angular: 
    x: 0.0
    y: 0.0
    z: 0.0
wrench: 
  force: 
    x: 0.0
    y: 0.0
    z: 0.0
  torque: 
    x: 0.0
    y: 0.0
    z: 0.0
---
header: 
  seq: 17175
  stamp: 
    secs: 344
    nsecs: 760000000
  frame_id: ''
pose: 
  position: 
    x: 0.702649661439
    y: 0.150682470393
    z: 0.0079780085089
  orientation: 
    x: -0.0270106242682
    y: 0.999606203637
    z: 0.00569238403318
    w: 0.00504584888
twist: 
  linear: 
    x: 0.0
    y: 0.0
    z: 0.0
  angular: 
    x: 0.0
    y: 0.0
    z: 0.0
wrench: 
  force: 
    x: 0.0
    y: 0.0
    z: 0.0
  torque: 
    x: 0.0
    y: 0.0
    z: 0.0
---
header: 
  seq: 17176
  stamp: 
    secs: 344
    nsecs: 780000000
  frame_id: ''
pose: 
  position: 
    x: 0.702306640181
    y: 0.150724115331
    z: 0.00849853603831
  orientation: 
    x: -0.0269243538171
    y: 0.999609855999
    z: 0.0057952681582
    w: 0.00465078784302
twist: 
  linear: 
    x: 0.0
    y: 0.0
    z: 0.0
  angular: 
    x: 0.0
    y: 0.0
    z: 0.0
wrench: 
  force: 
    x: 0.0
    y: 0.0
    z: 0.0
  torque: 
    x: 0.0
    y: 0.0
    z: 0.0
---
header: 
  seq: 17177
  stamp: 
    secs: 344
    nsecs: 800000000
  frame_id: ''
pose: 
  position: 
    x: 0.702414273429
    y: 0.150628318195
    z: 0.00894966691564
  orientation: 
    x: -0.0270056896177
    y: 0.999607447101
    z: 0.00565385584779
    w: 0.0048660397664
twist: 
  linear: 
    x: 0.0
    y: 0.0
    z: 0.0
  angular: 
    x: 0.0
    y: 0.0
    z: 0.0
wrench: 
  force: 
    x: 0.0
    y: 0.0
    z: 0.0
  torque: 
    x: 0.0
    y: 0.0
    z: 0.0
---
header: 
  seq: 17178
  stamp: 
    secs: 344
    nsecs: 820000000
  frame_id: ''
pose: 
  position: 
    x: 0.702533854572
    y: 0.150664632621
    z: 0.00942009806142
  orientation: 
    x: -0.0268937174412
    y: 0.999609232647
    z: 0.00572917469896
    w: 0.00502857104483
twist: 
  linear: 
    x: 0.0
    y: 0.0
    z: 0.0
  angular: 
    x: 0.0
    y: 0.0
    z: 0.0
wrench: 
  force: 
    x: 0.0
    y: 0.0
    z: 0.0
  torque: 
    x: 0.0
    y: 0.0
    z: 0.0
---
header: 
  seq: 17179
  stamp: 
    secs: 344
    nsecs: 840000000
  frame_id: ''
pose: 
  position: 
    x: 0.702479239592
    y: 0.150679335551
    z: 0.00974069620685
  orientation: 
    x: -0.0269134315618
    y: 0.999608706468
    z: 0.00572100268024
    w: 0.00503699155505
twist: 
  linear: 
    x: 0.0
    y: 0.0
    z: 0.0
  angular: 
    x: 0.0
    y: 0.0
    z: 0.0
wrench: 
  force: 
    x: 0.0
    y: 0.0
    z: 0.0
  torque: 
    x: 0.0
    y: 0.0
    z: 0.0
---
header: 
  seq: 17180
  stamp: 
    secs: 344
    nsecs: 860000000
  frame_id: ''
pose: 
  position: 
    x: 0.702060730995
    y: 0.150738161886
    z: 0.0101784976567
  orientation: 
    x: -0.0268232181333
    y: 0.999612514553
    z: 0.00584822735594
    w: 0.00459716807708
twist: 
  linear: 
    x: 0.0
    y: 0.0
    z: 0.0
  angular: 
    x: 0.0
    y: 0.0
    z: 0.0
wrench: 
  force: 
    x: 0.0
    y: 0.0
    z: 0.0
  torque: 
    x: 0.0
    y: 0.0
    z: 0.0
---
header: 
  seq: 17181
  stamp: 
    secs: 344
    nsecs: 880000000
  frame_id: ''
pose: 
  position: 
    x: 0.702138227082
    y: 0.15069287825
    z: 0.0105657940221
  orientation: 
    x: -0.0269006744648
    y: 0.999609980296
    z: 0.0057822715323
    w: 0.00477559866839
twist: 
  linear: 
    x: 0.0
    y: 0.0
    z: 0.0
  angular: 
    x: 0.0
    y: 0.0
    z: 0.0
wrench: 
  force: 
    x: 0.0
    y: 0.0
    z: 0.0
  torque: 
    x: 0.0
    y: 0.0
    z: 0.0
---
header: 
  seq: 17182
  stamp: 
    secs: 344
    nsecs: 900000000
  frame_id: ''
pose: 
  position: 
    x: 0.702420070381
    y: 0.150663549006
    z: 0.0109319555156
  orientation: 
    x: -0.0268250459468
    y: 0.999610619918
    z: 0.00570034323301
    w: 0.00515087797447
twist: 
  linear: 
    x: 0.0
    y: 0.0
    z: 0.0
  angular: 
    x: 0.0
    y: 0.0
    z: 0.0
wrench: 
  force: 
    x: 0.0
    y: 0.0
    z: 0.0
  torque: 
    x: 0.0
    y: 0.0
    z: 0.0
---
header: 
  seq: 17183
  stamp: 
    secs: 344
    nsecs: 920000000
  frame_id: ''
pose: 
  position: 
    x: 0.702043384099
    y: 0.150725818197
    z: 0.0114661466362
  orientation: 
    x: -0.0266550050758
    y: 0.999616492437
    z: 0.00585929356071
    w: 0.00469546913575
twist: 
  linear: 
    x: 0.0
    y: 0.0
    z: 0.0
  angular: 
    x: 0.0
    y: 0.0
    z: 0.0
wrench: 
  force: 
    x: 0.0
    y: 0.0
    z: 0.0
  torque: 
    x: 0.0
    y: 0.0
    z: 0.0
---
header: 
  seq: 17184
  stamp: 
    secs: 344
    nsecs: 940000000
  frame_id: ''
pose: 
  position: 
    x: 0.70200298855
    y: 0.150667209227
    z: 0.0118184239426
  orientation: 
    x: -0.0268746057844
    y: 0.999610648447
    z: 0.00577246610008
    w: 0.00479434144411
twist: 
  linear: 
    x: 0.0
    y: 0.0
    z: 0.0
  angular: 
    x: 0.0
    y: 0.0
    z: 0.0
wrench: 
  force: 
    x: 0.0
    y: 0.0
    z: 0.0
  torque: 
    x: 0.0
    y: 0.0
    z: 0.0
---
header: 
  seq: 17185
  stamp: 
    secs: 344
    nsecs: 960000000
  frame_id: ''
pose: 
  position: 
    x: 0.702092003645
    y: 0.150717730074
    z: 0.0121969723562
  orientation: 
    x: -0.0266924208287
    y: 0.999614469463
    z: 0.00586842875008
    w: 0.00489782149036
twist: 
  linear: 
    x: 0.0
    y: 0.0
    z: 0.0
  angular: 
    x: 0.0
    y: 0.0
    z: 0.0
wrench: 
  force: 
    x: 0.0
    y: 0.0
    z: 0.0
  torque: 
    x: 0.0
    y: 0.0
    z: 0.0
---
header: 
  seq: 17186
  stamp: 
    secs: 344
    nsecs: 980000000
  frame_id: ''
pose: 
  position: 
    x: 0.702326744089
    y: 0.15064726043
    z: 0.0122752679549
  orientation: 
    x: -0.0267571127915
    y: 0.999612341749
    z: 0.0057312005867
    w: 0.00513580352919
twist: 
  linear: 
    x: 0.0
    y: 0.0
    z: 0.0
  angular: 
    x: 0.0
    y: 0.0
    z: 0.0
wrench: 
  force: 
    x: 0.0
    y: 0.0
    z: 0.0
  torque: 
    x: 0.0
    y: 0.0
    z: 0.0
---
header: 
  seq: 17187
  stamp: 
    secs: 345
    nsecs:         0
  frame_id: ''
pose: 
  position: 
    x: 0.701623766156
    y: 0.150785309647
    z: 0.0126172878731
  orientation: 
    x: -0.0265793572845
    y: 0.999618937455
    z: 0.00594852120363
    w: 0.0044869526167
twist: 
  linear: 
    x: 0.0
    y: 0.0
    z: 0.0
  angular: 
    x: 0.0
    y: 0.0
    z: 0.0
wrench: 
  force: 
    x: 0.0
    y: 0.0
    z: 0.0
  torque: 
    x: 0.0
    y: 0.0
    z: 0.0
---
header: 
  seq: 17188
  stamp: 
    secs: 345
    nsecs:  20000000
  frame_id: ''
pose: 
  position: 
    x: 0.70121692895
    y: 0.150836835532
    z: 0.0132085612726
  orientation: 
    x: -0.026785248319
    y: 0.999614341139
    z: 0.00608802617361
    w: 0.00408110275014
twist: 
  linear: 
    x: 0.0
    y: 0.0
    z: 0.0
  angular: 
    x: 0.0
    y: 0.0
    z: 0.0
wrench: 
  force: 
    x: 0.0
    y: 0.0
    z: 0.0
  torque: 
    x: 0.0
    y: 0.0
    z: 0.0
---
header: 
  seq: 17189
  stamp: 
    secs: 345
    nsecs:  40000000
  frame_id: ''
pose: 
  position: 
    x: 0.702272387332
    y: 0.150589207072
    z: 0.0136302782987
  orientation: 
    x: -0.0266374655175
    y: 0.999615062994
    z: 0.00567676993141
    w: 0.00528635507497
twist: 
  linear: 
    x: 0.0
    y: 0.0
    z: 0.0
  angular: 
    x: 0.0
    y: 0.0
    z: 0.0
wrench: 
  force: 
    x: 0.0
    y: 0.0
    z: 0.0
  torque: 
    x: 0.0
    y: 0.0
    z: 0.0
---
header: 
  seq: 17190
  stamp: 
    secs: 345
    nsecs:  60000000
  frame_id: ''
pose: 
  position: 
    x: 0.702368767738
    y: 0.150660946183
    z: 0.0140764236544
  orientation: 
    x: -0.0264614035108
    y: 0.999618323653
    z: 0.00579994257359
    w: 0.0054186536711
twist: 
  linear: 
    x: 0.0
    y: 0.0
    z: 0.0
  angular: 
    x: 0.0
    y: 0.0
    z: 0.0
wrench: 
  force: 
    x: 0.0
    y: 0.0
    z: 0.0
  torque: 
    x: 0.0
    y: 0.0
    z: 0.0
---
header: 
  seq: 17191
  stamp: 
    secs: 345
    nsecs:  80000000
  frame_id: ''
pose: 
  position: 
    x: 0.701508429853
    y: 0.150750876822
    z: 0.0142838733294
  orientation: 
    x: -0.0267066914835
    y: 0.999615249008
    z: 0.00596163128219
    w: 0.00453492378044
twist: 
  linear: 
    x: 0.0
    y: 0.0
    z: 0.0
  angular: 
    x: 0.0
    y: 0.0
    z: 0.0
wrench: 
  force: 
    x: 0.0
    y: 0.0
    z: 0.0
  torque: 
    x: 0.0
    y: 0.0
    z: 0.0
---
header: 
  seq: 17192
  stamp: 
    secs: 345
    nsecs: 100000000
  frame_id: ''
pose: 
  position: 
    x: 0.701374778443
    y: 0.150791910571
    z: 0.0143717051412
  orientation: 
    x: -0.0265757717181
    y: 0.999618890687
    z: 0.00600187550236
    w: 0.00444738449219
twist: 
  linear: 
    x: 0.0
    y: 0.0
    z: 0.0
  angular: 
    x: 0.0
    y: 0.0
    z: 0.0
wrench: 
  force: 
    x: 0.0
    y: 0.0
    z: 0.0
  torque: 
    x: 0.0
    y: 0.0
    z: 0.0
---
header: 
  seq: 17193
  stamp: 
    secs: 345
    nsecs: 120000000
  frame_id: ''
pose: 
  position: 
    x: 0.701727367046
    y: 0.150818554788
    z: 0.0147104779359
  orientation: 
    x: -0.0264646759417
    y: 0.999619932478
    z: 0.00601616793551
    w: 0.00483913653308
twist: 
  linear: 
    x: 0.0
    y: 0.0
    z: 0.0
  angular: 
    x: 0.0
    y: 0.0
    z: 0.0
wrench: 
  force: 
    x: 0.0
    y: 0.0
    z: 0.0
  torque: 
    x: 0.0
    y: 0.0
    z: 0.0
---
header: 
  seq: 17194
  stamp: 
    secs: 345
    nsecs: 140000000
  frame_id: ''
pose: 
  position: 
    x: 0.701755800319
    y: 0.150684046136
    z: 0.0151870311104
  orientation: 
    x: -0.02655867011
    y: 0.999618011864
    z: 0.00585931646309
    w: 0.00491282095007
twist: 
  linear: 
    x: 0.0
    y: 0.0
    z: 0.0
  angular: 
    x: 0.0
    y: 0.0
    z: 0.0
wrench: 
  force: 
    x: 0.0
    y: 0.0
    z: 0.0
  torque: 
    x: 0.0
    y: 0.0
    z: 0.0
---
header: 
  seq: 17195
  stamp: 
    secs: 345
    nsecs: 160000000
  frame_id: ''
pose: 
  position: 
    x: 0.701637024675
    y: 0.150663073206
    z: 0.0155070057503
  orientation: 
    x: -0.0265717769231
    y: 0.999618080743
    z: 0.00585518820917
    w: 0.00483219346498
twist: 
  linear: 
    x: 0.0
    y: 0.0
    z: 0.0
  angular: 
    x: 0.0
    y: 0.0
    z: 0.0
wrench: 
  force: 
    x: 0.0
    y: 0.0
    z: 0.0
  torque: 
    x: 0.0
    y: 0.0
    z: 0.0
---
header: 
  seq: 17196
  stamp: 
    secs: 345
    nsecs: 180000000
  frame_id: ''
pose: 
  position: 
    x: 0.701587739953
    y: 0.150817712457
    z: 0.0156831553304
  orientation: 
    x: -0.0264269148196
    y: 0.999620794776
    z: 0.00605782810939
    w: 0.00481534461578
twist: 
  linear: 
    x: 0.0
    y: 0.0
    z: 0.0
  angular: 
    x: 0.0
    y: 0.0
    z: 0.0
wrench: 
  force: 
    x: 0.0
    y: 0.0
    z: 0.0
  torque: 
    x: 0.0
    y: 0.0
    z: 0.0
---
header: 
  seq: 17197
  stamp: 
    secs: 345
    nsecs: 200000000
  frame_id: ''
pose: 
  position: 
    x: 0.701507471693
    y: 0.150803179407
    z: 0.0158504624982
  orientation: 
    x: -0.0264496835108
    y: 0.99962067498
    z: 0.00602220863694
    w: 0.00475955863744
twist: 
  linear: 
    x: 0.0
    y: 0.0
    z: 0.0
  angular: 
    x: 0.0
    y: 0.0
    z: 0.0
wrench: 
  force: 
    x: 0.0
    y: 0.0
    z: 0.0
  torque: 
    x: 0.0
    y: 0.0
    z: 0.0
---
header: 
  seq: 17198
  stamp: 
    secs: 345
    nsecs: 220000000
  frame_id: ''
pose: 
  position: 
    x: 0.701309776373
    y: 0.15075241314
    z: 0.016183572758
  orientation: 
    x: -0.0264884153256
    y: 0.999620732038
    z: 0.00598778763066
    w: 0.00457190684505
twist: 
  linear: 
    x: 0.0
    y: 0.0
    z: 0.0
  angular: 
    x: 0.0
    y: 0.0
    z: 0.0
wrench: 
  force: 
    x: 0.0
    y: 0.0
    z: 0.0
  torque: 
    x: 0.0
    y: 0.0
    z: 0.0
---
header: 
  seq: 17199
  stamp: 
    secs: 345
    nsecs: 240000000
  frame_id: ''
pose: 
  position: 
    x: 0.70144014036
    y: 0.150747829493
    z: 0.0165011215438
  orientation: 
    x: -0.0264526901341
    y: 0.999620747332
    z: 0.00599089233986
    w: 0.00476716864861
twist: 
  linear: 
    x: 0.0
    y: 0.0
    z: 0.0
  angular: 
    x: 0.0
    y: 0.0
    z: 0.0
wrench: 
  force: 
    x: 0.0
    y: 0.0
    z: 0.0
  torque: 
    x: 0.0
    y: 0.0
    z: 0.0
---
header: 
  seq: 17200
  stamp: 
    secs: 345
    nsecs: 260000000
  frame_id: ''
pose: 
  position: 
    x: 0.701612313604
    y: 0.150764911841
    z: 0.0167568027169
  orientation: 
    x: -0.0263729830814
    y: 0.999621773236
    z: 0.00598906786587
    w: 0.00499072151211
twist: 
  linear: 
    x: 0.0
    y: 0.0
    z: 0.0
  angular: 
    x: 0.0
    y: 0.0
    z: 0.0
wrench: 
  force: 
    x: 0.0
    y: 0.0
    z: 0.0
  torque: 
    x: 0.0
    y: 0.0
    z: 0.0
---
header: 
  seq: 17201
  stamp: 
    secs: 345
    nsecs: 280000000
  frame_id: ''
pose: 
  position: 
    x: 0.701358392239
    y: 0.150766674196
    z: 0.0170110250181
  orientation: 
    x: -0.0263684359105
    y: 0.999622952773
    z: 0.00602440609871
    w: 0.00472910219168
twist: 
  linear: 
    x: 0.0
    y: 0.0
    z: 0.0
  angular: 
    x: 0.0
    y: 0.0
    z: 0.0
wrench: 
  force: 
    x: 0.0
    y: 0.0
    z: 0.0
  torque: 
    x: 0.0
    y: 0.0
    z: 0.0
---
header: 
  seq: 17202
  stamp: 
    secs: 345
    nsecs: 300000000
  frame_id: ''
pose: 
  position: 
    x: 0.701230901768
    y: 0.150762587774
    z: 0.01718354862
  orientation: 
    x: -0.0264408655976
    y: 0.999621439104
    z: 0.00601164489611
    w: 0.00466039008538
twist: 
  linear: 
    x: 0.0
    y: 0.0
    z: 0.0
  angular: 
    x: 0.0
    y: 0.0
    z: 0.0
wrench: 
  force: 
    x: 0.0
    y: 0.0
    z: 0.0
  torque: 
    x: 0.0
    y: 0.0
    z: 0.0
---
header: 
  seq: 17203
  stamp: 
    secs: 345
    nsecs: 320000000
  frame_id: ''
pose: 
  position: 
    x: 0.701249377348
    y: 0.150818334714
    z: 0.0174438071234
  orientation: 
    x: -0.0262953465199
    y: 0.999624604543
    z: 0.00610685357303
    w: 0.0046809276588
twist: 
  linear: 
    x: 0.0
    y: 0.0
    z: 0.0
  angular: 
    x: 0.0
    y: 0.0
    z: 0.0
wrench: 
  force: 
    x: 0.0
    y: 0.0
    z: 0.0
  torque: 
    x: 0.0
    y: 0.0
    z: 0.0
---
header: 
  seq: 17204
  stamp: 
    secs: 345
    nsecs: 340000000
  frame_id: ''
pose: 
  position: 
    x: 0.70136530476
    y: 0.150759020101
    z: 0.0176903148366
  orientation: 
    x: -0.0263469377558
    y: 0.999623007694
    z: 0.00601539079631
    w: 0.00484731203049
twist: 
  linear: 
    x: 0.0
    y: 0.0
    z: 0.0
  angular: 
    x: 0.0
    y: 0.0
    z: 0.0
wrench: 
  force: 
    x: 0.0
    y: 0.0
    z: 0.0
  torque: 
    x: 0.0
    y: 0.0
    z: 0.0
---
header: 
  seq: 17205
  stamp: 
    secs: 345
    nsecs: 360000000
  frame_id: ''
pose: 
  position: 
    x: 0.701272672148
    y: 0.150745530894
    z: 0.0179398287452
  orientation: 
    x: -0.0263400128913
    y: 0.999623520079
    z: 0.00601699380899
    w: 0.00477677834242
twist: 
  linear: 
    x: 0.0
    y: 0.0
    z: 0.0
  angular: 
    x: 0.0
    y: 0.0
    z: 0.0
wrench: 
  force: 
    x: 0.0
    y: 0.0
    z: 0.0
  torque: 
    x: 0.0
    y: 0.0
    z: 0.0
---
header: 
  seq: 17206
  stamp: 
    secs: 345
    nsecs: 380000000
  frame_id: ''
pose: 
  position: 
    x: 0.701168055265
    y: 0.150798197528
    z: 0.0181301531627
  orientation: 
    x: -0.0262947485904
    y: 0.999624621478
    z: 0.00609054831398
    w: 0.00470186697848
twist: 
  linear: 
    x: 0.0
    y: 0.0
    z: 0.0
  angular: 
    x: 0.0
    y: 0.0
    z: 0.0
wrench: 
  force: 
    x: 0.0
    y: 0.0
    z: 0.0
  torque: 
    x: 0.0
    y: 0.0
    z: 0.0
---
header: 
  seq: 17207
  stamp: 
    secs: 345
    nsecs: 400000000
  frame_id: ''
pose: 
  position: 
    x: 0.701169002454
    y: 0.150805186517
    z: 0.0183050667586
  orientation: 
    x: -0.0262800941939
    y: 0.999624879186
    z: 0.0060955673266
    w: 0.00472245923169
twist: 
  linear: 
    x: 0.0
    y: 0.0
    z: 0.0
  angular: 
    x: 0.0
    y: 0.0
    z: 0.0
wrench: 
  force: 
    x: 0.0
    y: 0.0
    z: 0.0
  torque: 
    x: 0.0
    y: 0.0
    z: 0.0
---
header: 
  seq: 17208
  stamp: 
    secs: 345
    nsecs: 420000000
  frame_id: ''
pose: 
  position: 
    x: 0.701145047131
    y: 0.150780822838
    z: 0.0185299121848
  orientation: 
    x: -0.0262651804018
    y: 0.999625391323
    z: 0.0060705270208
    w: 0.00472927298612
twist: 
  linear: 
    x: 0.0
    y: 0.0
    z: 0.0
  angular: 
    x: 0.0
    y: 0.0
    z: 0.0
wrench: 
  force: 
    x: 0.0
    y: 0.0
    z: 0.0
  torque: 
    x: 0.0
    y: 0.0
    z: 0.0
---
header: 
  seq: 17209
  stamp: 
    secs: 345
    nsecs: 440000000
  frame_id: ''
pose: 
  position: 
    x: 0.701095560673
    y: 0.150783475847
    z: 0.0187672187785
  orientation: 
    x: -0.0262805297724
    y: 0.99962499069
    z: 0.00609181238434
    w: 0.00470123009862
twist: 
  linear: 
    x: 0.0
    y: 0.0
    z: 0.0
  angular: 
    x: 0.0
    y: 0.0
    z: 0.0
wrench: 
  force: 
    x: 0.0
    y: 0.0
    z: 0.0
  torque: 
    x: 0.0
    y: 0.0
    z: 0.0
---
header: 
  seq: 17210
  stamp: 
    secs: 345
    nsecs: 460000000
  frame_id: ''
pose: 
  position: 
    x: 0.70116990991
    y: 0.150774783012
    z: 0.0189158012724
  orientation: 
    x: -0.0262442523312
    y: 0.999625600879
    z: 0.00606799266021
    w: 0.00480382673704
twist: 
  linear: 
    x: 0.0
    y: 0.0
    z: 0.0
  angular: 
    x: 0.0
    y: 0.0
    z: 0.0
wrench: 
  force: 
    x: 0.0
    y: 0.0
    z: 0.0
  torque: 
    x: 0.0
    y: 0.0
    z: 0.0
---
header: 
  seq: 17211
  stamp: 
    secs: 345
    nsecs: 480000000
  frame_id: ''
pose: 
  position: 
    x: 0.701067310542
    y: 0.150823146732
    z: 0.0191000129943
  orientation: 
    x: -0.0261946951577
    y: 0.999626837871
    z: 0.00614151523403
    w: 0.0047227898126
twist: 
  linear: 
    x: 0.0
    y: 0.0
    z: 0.0
  angular: 
    x: 0.0
    y: 0.0
    z: 0.0
wrench: 
  force: 
    x: 0.0
    y: 0.0
    z: 0.0
  torque: 
    x: 0.0
    y: 0.0
    z: 0.0
---
header: 
  seq: 17212
  stamp: 
    secs: 345
    nsecs: 500000000
  frame_id: ''
pose: 
  position: 
    x: 0.700915671375
    y: 0.150816290606
    z: 0.0193181874061
  orientation: 
    x: -0.0262441683293
    y: 0.999626077738
    z: 0.00615344372087
    w: 0.00459167348776
twist: 
  linear: 
    x: 0.0
    y: 0.0
    z: 0.0
  angular: 
    x: 0.0
    y: 0.0
    z: 0.0
wrench: 
  force: 
    x: 0.0
    y: 0.0
    z: 0.0
  torque: 
    x: 0.0
    y: 0.0
    z: 0.0
---
header: 
  seq: 17213
  stamp: 
    secs: 345
    nsecs: 520000000
  frame_id: ''
pose: 
  position: 
    x: 0.701035211549
    y: 0.150772603144
    z: 0.0194976641849
  orientation: 
    x: -0.0262257673108
    y: 0.9996262565
    z: 0.00608587032758
    w: 0.00474537945699
twist: 
  linear: 
    x: 0.0
    y: 0.0
    z: 0.0
  angular: 
    x: 0.0
    y: 0.0
    z: 0.0
wrench: 
  force: 
    x: 0.0
    y: 0.0
    z: 0.0
  torque: 
    x: 0.0
    y: 0.0
    z: 0.0
---
header: 
  seq: 17214
  stamp: 
    secs: 345
    nsecs: 540000000
  frame_id: ''
pose: 
  position: 
    x: 0.701084412978
    y: 0.150805419917
    z: 0.0196850358827
  orientation: 
    x: -0.0261418609895
    y: 0.999627824285
    z: 0.00612911319231
    w: 0.00482182445842
twist: 
  linear: 
    x: 0.0
    y: 0.0
    z: 0.0
  angular: 
    x: 0.0
    y: 0.0
    z: 0.0
wrench: 
  force: 
    x: 0.0
    y: 0.0
    z: 0.0
  torque: 
    x: 0.0
    y: 0.0
    z: 0.0
---
header: 
  seq: 17215
  stamp: 
    secs: 345
    nsecs: 560000000
  frame_id: ''
pose: 
  position: 
    x: 0.700921129783
    y: 0.150815545956
    z: 0.0198596758753
  orientation: 
    x: -0.0261824035206
    y: 0.999627316602
    z: 0.00616043749533
    w: 0.00466461776828
twist: 
  linear: 
    x: 0.0
    y: 0.0
    z: 0.0
  angular: 
    x: 0.0
    y: 0.0
    z: 0.0
wrench: 
  force: 
    x: 0.0
    y: 0.0
    z: 0.0
  torque: 
    x: 0.0
    y: 0.0
    z: 0.0
---
header: 
  seq: 17216
  stamp: 
    secs: 345
    nsecs: 580000000
  frame_id: ''
pose: 
  position: 
    x: 0.700876669463
    y: 0.150797333264
    z: 0.0199921069789
  orientation: 
    x: -0.0261941306662
    y: 0.999627224114
    z: 0.00613723346145
    w: 0.00464916058881
twist: 
  linear: 
    x: 0.0
    y: 0.0
    z: 0.0
  angular: 
    x: 0.0
    y: 0.0
    z: 0.0
wrench: 
  force: 
    x: 0.0
    y: 0.0
    z: 0.0
  torque: 
    x: 0.0
    y: 0.0
    z: 0.0
---
header: 
  seq: 17217
  stamp: 
    secs: 345
    nsecs: 600000000
  frame_id: ''
pose: 
  position: 
    x: 0.70093702686
    y: 0.150822814358
    z: 0.0201407127427
  orientation: 
    x: -0.0261250781901
    y: 0.999628463172
    z: 0.00616297048859
    w: 0.00473642276165
twist: 
  linear: 
    x: 0.0
    y: 0.0
    z: 0.0
  angular: 
    x: 0.0
    y: 0.0
    z: 0.0
wrench: 
  force: 
    x: 0.0
    y: 0.0
    z: 0.0
  torque: 
    x: 0.0
    y: 0.0
    z: 0.0
---
header: 
  seq: 17218
  stamp: 
    secs: 345
    nsecs: 620000000
  frame_id: ''
pose: 
  position: 
    x: 0.70086915332
    y: 0.150827944997
    z: 0.0203481981063
  orientation: 
    x: -0.0261164177796
    y: 0.999628832049
    z: 0.00618162123441
    w: 0.00468171092274
twist: 
  linear: 
    x: 0.0
    y: 0.0
    z: 0.0
  angular: 
    x: 0.0
    y: 0.0
    z: 0.0
wrench: 
  force: 
    x: 0.0
    y: 0.0
    z: 0.0
  torque: 
    x: 0.0
    y: 0.0
    z: 0.0
---
header: 
  seq: 17219
  stamp: 
    secs: 345
    nsecs: 640000000
  frame_id: ''
pose: 
  position: 
    x: 0.700845133111
    y: 0.150784154529
    z: 0.0205194028854
  orientation: 
    x: -0.026160309603
    y: 0.999627970412
    z: 0.00613323365935
    w: 0.00468427327538
twist: 
  linear: 
    x: 0.0
    y: 0.0
    z: 0.0
  angular: 
    x: 0.0
    y: 0.0
    z: 0.0
wrench: 
  force: 
    x: 0.0
    y: 0.0
    z: 0.0
  torque: 
    x: 0.0
    y: 0.0
    z: 0.0
---
header: 
  seq: 17220
  stamp: 
    secs: 345
    nsecs: 660000000
  frame_id: ''
pose: 
  position: 
    x: 0.700878069399
    y: 0.150813598011
    z: 0.0206596075189
  orientation: 
    x: -0.0261012919269
    y: 0.999628996139
    z: 0.00617383948129
    w: 0.00474092228366
twist: 
  linear: 
    x: 0.0
    y: 0.0
    z: 0.0
  angular: 
    x: 0.0
    y: 0.0
    z: 0.0
wrench: 
  force: 
    x: 0.0
    y: 0.0
    z: 0.0
  torque: 
    x: 0.0
    y: 0.0
    z: 0.0
---
header: 
  seq: 17221
  stamp: 
    secs: 345
    nsecs: 680000000
  frame_id: ''
pose: 
  position: 
    x: 0.700823736582
    y: 0.150842391543
    z: 0.020794459202
  orientation: 
    x: -0.0260785028841
    y: 0.999629517241
    z: 0.00621584245314
    w: 0.00470140934529
twist: 
  linear: 
    x: 0.0
    y: 0.0
    z: 0.0
  angular: 
    x: 0.0
    y: 0.0
    z: 0.0
wrench: 
  force: 
    x: 0.0
    y: 0.0
    z: 0.0
  torque: 
    x: 0.0
    y: 0.0
    z: 0.0
---
header: 
  seq: 17222
  stamp: 
    secs: 345
    nsecs: 700000000
  frame_id: ''
pose: 
  position: 
    x: 0.700756428472
    y: 0.150813362807
    z: 0.0209218215114
  orientation: 
    x: -0.026117992268
    y: 0.999628949088
    z: 0.00617402360131
    w: 0.00465790272407
twist: 
  linear: 
    x: 0.0
    y: 0.0
    z: 0.0
  angular: 
    x: 0.0
    y: 0.0
    z: 0.0
wrench: 
  force: 
    x: 0.0
    y: 0.0
    z: 0.0
  torque: 
    x: 0.0
    y: 0.0
    z: 0.0
---
header: 
  seq: 17223
  stamp: 
    secs: 345
    nsecs: 720000000
  frame_id: ''
pose: 
  position: 
    x: 0.700735164908
    y: 0.150818374346
    z: 0.021079558218
  orientation: 
    x: -0.0260687274471
    y: 0.999630192063
    z: 0.00618957999375
    w: 0.00464646796161
twist: 
  linear: 
    x: 0.0
    y: 0.0
    z: 0.0
  angular: 
    x: 0.0
    y: 0.0
    z: 0.0
wrench: 
  force: 
    x: 0.0
    y: 0.0
    z: 0.0
  torque: 
    x: 0.0
    y: 0.0
    z: 0.0
---
header: 
  seq: 17224
  stamp: 
    secs: 345
    nsecs: 740000000
  frame_id: ''
pose: 
  position: 
    x: 0.700782677989
    y: 0.150827955987
    z: 0.0212293920926
  orientation: 
    x: -0.0260540755088
    y: 0.999630148221
    z: 0.00620211750607
    w: 0.00472076859128
twist: 
  linear: 
    x: 0.0
    y: 0.0
    z: 0.0
  angular: 
    x: 0.0
    y: 0.0
    z: 0.0
wrench: 
  force: 
    x: 0.0
    y: 0.0
    z: 0.0
  torque: 
    x: 0.0
    y: 0.0
    z: 0.0
---
header: 
  seq: 17225
  stamp: 
    secs: 345
    nsecs: 760000000
  frame_id: ''
pose: 
  position: 
    x: 0.700757623498
    y: 0.150818176657
    z: 0.0213717144501
  orientation: 
    x: -0.026060021285
    y: 0.999630054335
    z: 0.00619754390105
    w: 0.00471383186015
twist: 
  linear: 
    x: 0.0
    y: 0.0
    z: 0.0
  angular: 
    x: 0.0
    y: 0.0
    z: 0.0
wrench: 
  force: 
    x: 0.0
    y: 0.0
    z: 0.0
  torque: 
    x: 0.0
    y: 0.0
    z: 0.0
---
header: 
  seq: 17226
  stamp: 
    secs: 345
    nsecs: 780000000
  frame_id: ''
pose: 
  position: 
    x: 0.700716613483
    y: 0.150811474201
    z: 0.021469751741
  orientation: 
    x: -0.026061083829
    y: 0.999630231651
    z: 0.00618803756878
    w: 0.00468274170501
twist: 
  linear: 
    x: 0.0
    y: 0.0
    z: 0.0
  angular: 
    x: 0.0
    y: 0.0
    z: 0.0
wrench: 
  force: 
    x: 0.0
    y: 0.0
    z: 0.0
  torque: 
    x: 0.0
    y: 0.0
    z: 0.0
---
header: 
  seq: 17227
  stamp: 
    secs: 345
    nsecs: 800000000
  frame_id: ''
pose: 
  position: 
    x: 0.700646588145
    y: 0.150857727458
    z: 0.0215981182248
  orientation: 
    x: -0.0260132919564
    y: 0.999631283881
    z: 0.00625803334864
    w: 0.0046305449284
twist: 
  linear: 
    x: 0.0
    y: 0.0
    z: 0.0
  angular: 
    x: 0.0
    y: 0.0
    z: 0.0
wrench: 
  force: 
    x: 0.0
    y: 0.0
    z: 0.0
  torque: 
    x: 0.0
    y: 0.0
    z: 0.0
---
header: 
  seq: 17228
  stamp: 
    secs: 345
    nsecs: 820000000
  frame_id: ''
pose: 
  position: 
    x: 0.700642167463
    y: 0.15083789748
    z: 0.0217379558219
  orientation: 
    x: -0.0260393361726
    y: 0.999630664082
    z: 0.00623592971112
    w: 0.00464774983208
twist: 
  linear: 
    x: 0.0
    y: 0.0
    z: 0.0
  angular: 
    x: 0.0
    y: 0.0
    z: 0.0
wrench: 
  force: 
    x: 0.0
    y: 0.0
    z: 0.0
  torque: 
    x: 0.0
    y: 0.0
    z: 0.0
---
header: 
  seq: 17229
  stamp: 
    secs: 345
    nsecs: 840000000
  frame_id: ''
pose: 
  position: 
    x: 0.700692312427
    y: 0.150806673805
    z: 0.021871659013
  orientation: 
    x: -0.0260276153043
    y: 0.999630930517
    z: 0.00619405299823
    w: 0.00471165607535
twist: 
  linear: 
    x: 0.0
    y: 0.0
    z: 0.0
  angular: 
    x: 0.0
    y: 0.0
    z: 0.0
wrench: 
  force: 
    x: 0.0
    y: 0.0
    z: 0.0
  torque: 
    x: 0.0
    y: 0.0
    z: 0.0
---
header: 
  seq: 17230
  stamp: 
    secs: 345
    nsecs: 860000000
  frame_id: ''
pose: 
  position: 
    x: 0.700688839347
    y: 0.150827245468
    z: 0.021965609109
  orientation: 
    x: -0.0259946526717
    y: 0.999631548736
    z: 0.00623105827633
    w: 0.00471367339443
twist: 
  linear: 
    x: 0.0
    y: 0.0
    z: 0.0
  angular: 
    x: 0.0
    y: 0.0
    z: 0.0
wrench: 
  force: 
    x: 0.0
    y: 0.0
    z: 0.0
  torque: 
    x: 0.0
    y: 0.0
    z: 0.0
---
header: 
  seq: 17231
  stamp: 
    secs: 345
    nsecs: 880000000
  frame_id: ''
pose: 
  position: 
    x: 0.700727833478
    y: 0.150822801923
    z: 0.0219177047754
  orientation: 
    x: -0.0260456284781
    y: 0.999630142857
    z: 0.00620466872977
    w: 0.0047649569306
twist: 
  linear: 
    x: 0.0
    y: 0.0
    z: 0.0
  angular: 
    x: 0.0
    y: 0.0
    z: 0.0
wrench: 
  force: 
    x: 0.0
    y: 0.0
    z: 0.0
  torque: 
    x: 0.0
    y: 0.0
    z: 0.0
---
header: 
  seq: 17232
  stamp: 
    secs: 345
    nsecs: 900000000
  frame_id: ''
pose: 
  position: 
    x: 0.700634380534
    y: 0.150859956181
    z: 0.0218612053391
  orientation: 
    x: -0.0260018143189
    y: 0.999631521756
    z: 0.00624927547756
    w: 0.00465541825082
twist: 
  linear: 
    x: 0.0
    y: 0.0
    z: 0.0
  angular: 
    x: 0.0
    y: 0.0
    z: 0.0
wrench: 
  force: 
    x: 0.0
    y: 0.0
    z: 0.0
  torque: 
    x: 0.0
    y: 0.0
    z: 0.0
---
header: 
  seq: 17233
  stamp: 
    secs: 345
    nsecs: 920000000
  frame_id: ''
pose: 
  position: 
    x: 0.700542611424
    y: 0.150874228344
    z: 0.0218428791862
  orientation: 
    x: -0.0260307489177
    y: 0.999631126285
    z: 0.00626742824717
    w: 0.00455311058394
twist: 
  linear: 
    x: 0.0
    y: 0.0
    z: 0.0
  angular: 
    x: 0.0
    y: 0.0
    z: 0.0
wrench: 
  force: 
    x: 0.0
    y: 0.0
    z: 0.0
  torque: 
    x: 0.0
    y: 0.0
    z: 0.0
---
header: 
  seq: 17234
  stamp: 
    secs: 345
    nsecs: 940000000
  frame_id: ''
pose: 
  position: 
    x: 0.700626985243
    y: 0.150842487568
    z: 0.0218619998159
  orientation: 
    x: -0.0260389890201
    y: 0.999630776877
    z: 0.00622153661269
    w: 0.00464472317211
twist: 
  linear: 
    x: 0.0
    y: 0.0
    z: 0.0
  angular: 
    x: 0.0
    y: 0.0
    z: 0.0
wrench: 
  force: 
    x: 0.0
    y: 0.0
    z: 0.0
  torque: 
    x: 0.0
    y: 0.0
    z: 0.0
---
header: 
  seq: 17235
  stamp: 
    secs: 345
    nsecs: 960000000
  frame_id: ''
pose: 
  position: 
    x: 0.700719709587
    y: 0.150833276345
    z: 0.0218986116719
  orientation: 
    x: -0.0260124981251
    y: 0.999631057109
    z: 0.00621042891451
    w: 0.00474659642099
twist: 
  linear: 
    x: 0.0
    y: 0.0
    z: 0.0
  angular: 
    x: 0.0
    y: 0.0
    z: 0.0
wrench: 
  force: 
    x: 0.0
    y: 0.0
    z: 0.0
  torque: 
    x: 0.0
    y: 0.0
    z: 0.0
---
header: 
  seq: 17236
  stamp: 
    secs: 345
    nsecs: 980000000
  frame_id: ''
pose: 
  position: 
    x: 0.700675814258
    y: 0.150840815006
    z: 0.0219065589382
  orientation: 
    x: -0.026027834812
    y: 0.999630782958
    z: 0.00622619999971
    w: 0.00469936281243
twist: 
  linear: 
    x: 0.0
    y: 0.0
    z: 0.0
  angular: 
    x: 0.0
    y: 0.0
    z: 0.0
wrench: 
  force: 
    x: 0.0
    y: 0.0
    z: 0.0
  torque: 
    x: 0.0
    y: 0.0
    z: 0.0
---
header: 
  seq: 17237
  stamp: 
    secs: 346
    nsecs:         0
  frame_id: ''
pose: 
  position: 
    x: 0.700613139166
    y: 0.150844639674
    z: 0.0218777939497
  orientation: 
    x: -0.026024001836
    y: 0.999631123103
    z: 0.00623611647464
    w: 0.00463464163042
twist: 
  linear: 
    x: 0.0
    y: 0.0
    z: 0.0
  angular: 
    x: 0.0
    y: 0.0
    z: 0.0
wrench: 
  force: 
    x: 0.0
    y: 0.0
    z: 0.0
  torque: 
    x: 0.0
    y: 0.0
    z: 0.0
---
header: 
  seq: 17238
  stamp: 
    secs: 346
    nsecs:  20000000
  frame_id: ''
pose: 
  position: 
    x: 0.700619273634
    y: 0.150850434994
    z: 0.0218591480514
  orientation: 
    x: -0.0260173665854
    y: 0.999631217735
    z: 0.00624497032514
    w: 0.00463955937236
twist: 
  linear: 
    x: 0.0
    y: 0.0
    z: 0.0
  angular: 
    x: 0.0
    y: 0.0
    z: 0.0
wrench: 
  force: 
    x: 0.0
    y: 0.0
    z: 0.0
  torque: 
    x: 0.0
    y: 0.0
    z: 0.0
---
header: 
  seq: 17239
  stamp: 
    secs: 346
    nsecs:  40000000
  frame_id: ''
pose: 
  position: 
    x: 0.700646521559
    y: 0.150838136502
    z: 0.0218720120682
  orientation: 
    x: -0.0260120155832
    y: 0.999631301387
    z: 0.00623210784219
    w: 0.00466874343314
twist: 
  linear: 
    x: 0.0
    y: 0.0
    z: 0.0
  angular: 
    x: 0.0
    y: 0.0
    z: 0.0
wrench: 
  force: 
    x: 0.0
    y: 0.0
    z: 0.0
  torque: 
    x: 0.0
    y: 0.0
    z: 0.0
---
header: 
  seq: 17240
  stamp: 
    secs: 346
    nsecs:  60000000
  frame_id: ''
pose: 
  position: 
    x: 0.700655577581
    y: 0.150821609135
    z: 0.0218899484999
  orientation: 
    x: -0.0260213894167
    y: 0.999631108689
    z: 0.00621586934739
    w: 0.00467940197005
twist: 
  linear: 
    x: 0.0
    y: 0.0
    z: 0.0
  angular: 
    x: 0.0
    y: 0.0
    z: 0.0
wrench: 
  force: 
    x: 0.0
    y: 0.0
    z: 0.0
  torque: 
    x: 0.0
    y: 0.0
    z: 0.0
---
header: 
  seq: 17241
  stamp: 
    secs: 346
    nsecs:  80000000
  frame_id: ''
pose: 
  position: 
    x: 0.700655104358
    y: 0.150826842887
    z: 0.0218892157921
  orientation: 
    x: -0.0260129175594
    y: 0.999631258661
    z: 0.00622619689829
    w: 0.00468073711967
twist: 
  linear: 
    x: 0.0
    y: 0.0
    z: 0.0
  angular: 
    x: 0.0
    y: 0.0
    z: 0.0
wrench: 
  force: 
    x: 0.0
    y: 0.0
    z: 0.0
  torque: 
    x: 0.0
    y: 0.0
    z: 0.0
---
header: 
  seq: 17242
  stamp: 
    secs: 346
    nsecs: 100000000
  frame_id: ''
pose: 
  position: 
    x: 0.700642622713
    y: 0.150836287939
    z: 0.0218785723434
  orientation: 
    x: -0.0260041874192
    y: 0.999631460943
    z: 0.00624000839924
    w: 0.00466763589409
twist: 
  linear: 
    x: 0.0
    y: 0.0
    z: 0.0
  angular: 
    x: 0.0
    y: 0.0
    z: 0.0
wrench: 
  force: 
    x: 0.0
    y: 0.0
    z: 0.0
  torque: 
    x: 0.0
    y: 0.0
    z: 0.0
---
header: 
  seq: 17243
  stamp: 
    secs: 346
    nsecs: 120000000
  frame_id: ''
pose: 
  position: 
    x: 0.700628857796
    y: 0.150829389989
    z: 0.0218735335581
  orientation: 
    x: -0.0260151021324
    y: 0.999631302979
    z: 0.00623170316399
    w: 0.00465171387056
twist: 
  linear: 
    x: 0.0
    y: 0.0
    z: 0.0
  angular: 
    x: 0.0
    y: 0.0
    z: 0.0
wrench: 
  force: 
    x: 0.0
    y: 0.0
    z: 0.0
  torque: 
    x: 0.0
    y: 0.0
    z: 0.0
---
header: 
  seq: 17244
  stamp: 
    secs: 346
    nsecs: 140000000
  frame_id: ''
pose: 
  position: 
    x: 0.700636932778
    y: 0.150824650608
    z: 0.0218766708415
  orientation: 
    x: -0.026012659745
    y: 0.999631359557
    z: 0.00622609368105
    w: 0.00466071686322
twist: 
  linear: 
    x: 0.0
    y: 0.0
    z: 0.0
  angular: 
    x: 0.0
    y: 0.0
    z: 0.0
wrench: 
  force: 
    x: 0.0
    y: 0.0
    z: 0.0
  torque: 
    x: 0.0
    y: 0.0
    z: 0.0
---
header: 
  seq: 17245
  stamp: 
    secs: 346
    nsecs: 160000000
  frame_id: ''
pose: 
  position: 
    x: 0.700652242156
    y: 0.150829331235
    z: 0.0218821616679
  orientation: 
    x: -0.0260077882153
    y: 0.999631375778
    z: 0.006231470301
    w: 0.00467720961522
twist: 
  linear: 
    x: 0.0
    y: 0.0
    z: 0.0
  angular: 
    x: 0.0
    y: 0.0
    z: 0.0
wrench: 
  force: 
    x: 0.0
    y: 0.0
    z: 0.0
  torque: 
    x: 0.0
    y: 0.0
    z: 0.0
---
header: 
  seq: 17246
  stamp: 
    secs: 346
    nsecs: 180000000
  frame_id: ''
pose: 
  position: 
    x: 0.700649734708
    y: 0.150828513526
    z: 0.0218837637108
  orientation: 
    x: -0.0260109442506
    y: 0.999631319099
    z: 0.00622935595132
    w: 0.00467458870276
twist: 
  linear: 
    x: 0.0
    y: 0.0
    z: 0.0
  angular: 
    x: 0.0
    y: 0.0
    z: 0.0
wrench: 
  force: 
    x: 0.0
    y: 0.0
    z: 0.0
  torque: 
    x: 0.0
    y: 0.0
    z: 0.0
---
header: 
  seq: 17247
  stamp: 
    secs: 346
    nsecs: 200000000
  frame_id: ''
pose: 
  position: 
    x: 0.700639095839
    y: 0.150828162649
    z: 0.0218804285307
  orientation: 
    x: -0.0260153754874
    y: 0.999631267175
    z: 0.00622792911998
    w: 0.00466292008699
twist: 
  linear: 
    x: 0.0
    y: 0.0
    z: 0.0
  angular: 
    x: 0.0
    y: 0.0
    z: 0.0
wrench: 
  force: 
    x: 0.0
    y: 0.0
    z: 0.0
  torque: 
    x: 0.0
    y: 0.0
    z: 0.0
---
header: 
  seq: 17248
  stamp: 
    secs: 346
    nsecs: 220000000
  frame_id: ''
pose: 
  position: 
    x: 0.700638979267
    y: 0.150834060368
    z: 0.0218769594698
  orientation: 
    x: -0.026012103862
    y: 0.999631317638
    z: 0.00623380701902
    w: 0.00466249940615
twist: 
  linear: 
    x: 0.0
    y: 0.0
    z: 0.0
  angular: 
    x: 0.0
    y: 0.0
    z: 0.0
wrench: 
  force: 
    x: 0.0
    y: 0.0
    z: 0.0
  torque: 
    x: 0.0
    y: 0.0
    z: 0.0
---
header: 
  seq: 17249
  stamp: 
    secs: 346
    nsecs: 240000000
  frame_id: ''
pose: 
  position: 
    x: 0.70064371811
    y: 0.150835021827
    z: 0.0218779214727
  orientation: 
    x: -0.0260123471333
    y: 0.999631294165
    z: 0.00623306121609
    w: 0.0046671693265
twist: 
  linear: 
    x: 0.0
    y: 0.0
    z: 0.0
  angular: 
    x: 0.0
    y: 0.0
    z: 0.0
wrench: 
  force: 
    x: 0.0
    y: 0.0
    z: 0.0
  torque: 
    x: 0.0
    y: 0.0
    z: 0.0
---
header: 
  seq: 17250
  stamp: 
    secs: 346
    nsecs: 260000000
  frame_id: ''
pose: 
  position: 
    x: 0.700645097355
    y: 0.15083132305
    z: 0.0218809111171
  orientation: 
    x: -0.0260177159098
    y: 0.999631186781
    z: 0.00622699699487
    w: 0.00466833831571
twist: 
  linear: 
    x: 0.0
    y: 0.0
    z: 0.0
  angular: 
    x: 0.0
    y: 0.0
    z: 0.0
wrench: 
  force: 
    x: 0.0
    y: 0.0
    z: 0.0
  torque: 
    x: 0.0
    y: 0.0
    z: 0.0
---
header: 
  seq: 17251
  stamp: 
    secs: 346
    nsecs: 280000000
  frame_id: ''
pose: 
  position: 
    x: 0.700645673364
    y: 0.150833679541
    z: 0.0218813888679
  orientation: 
    x: -0.0260159021509
    y: 0.999631215962
    z: 0.00622928260642
    w: 0.00466914854331
twist: 
  linear: 
    x: 0.0
    y: 0.0
    z: 0.0
  angular: 
    x: 0.0
    y: 0.0
    z: 0.0
wrench: 
  force: 
    x: 0.0
    y: 0.0
    z: 0.0
  torque: 
    x: 0.0
    y: 0.0
    z: 0.0
---
header: 
  seq: 17252
  stamp: 
    secs: 346
    nsecs: 300000000
  frame_id: ''
pose: 
  position: 
    x: 0.700644845189
    y: 0.15083766237
    z: 0.0218797464376
  orientation: 
    x: -0.0260145437167
    y: 0.999631229848
    z: 0.00623349629575
    w: 0.0046681207577
twist: 
  linear: 
    x: 0.0
    y: 0.0
    z: 0.0
  angular: 
    x: 0.0
    y: 0.0
    z: 0.0
wrench: 
  force: 
    x: 0.0
    y: 0.0
    z: 0.0
  torque: 
    x: 0.0
    y: 0.0
    z: 0.0
---
header: 
  seq: 17253
  stamp: 
    secs: 346
    nsecs: 320000000
  frame_id: ''
pose: 
  position: 
    x: 0.700642145494
    y: 0.150835980164
    z: 0.0218787957717
  orientation: 
    x: -0.0260172480417
    y: 0.99963119123
    z: 0.00623074525212
    w: 0.00466499075517
twist: 
  linear: 
    x: 0.0
    y: 0.0
    z: 0.0
  angular: 
    x: 0.0
    y: 0.0
    z: 0.0
wrench: 
  force: 
    x: 0.0
    y: 0.0
    z: 0.0
  torque: 
    x: 0.0
    y: 0.0
    z: 0.0
---
header: 
  seq: 17254
  stamp: 
    secs: 346
    nsecs: 340000000
  frame_id: ''
pose: 
  position: 
    x: 0.700642445731
    y: 0.150834789209
    z: 0.0218791808745
  orientation: 
    x: -0.0260177841099
    y: 0.999631185206
    z: 0.0062292564458
    w: 0.0046652800972
twist: 
  linear: 
    x: 0.0
    y: 0.0
    z: 0.0
  angular: 
    x: 0.0
    y: 0.0
    z: 0.0
wrench: 
  force: 
    x: 0.0
    y: 0.0
    z: 0.0
  torque: 
    x: 0.0
    y: 0.0
    z: 0.0
---
header: 
  seq: 17255
  stamp: 
    secs: 346
    nsecs: 360000000
  frame_id: ''
pose: 
  position: 
    x: 0.70064545709
    y: 0.150836358547
    z: 0.0218799221509
  orientation: 
    x: -0.026015519527
    y: 0.999631214773
    z: 0.00623145803697
    w: 0.00466863221003
twist: 
  linear: 
    x: 0.0
    y: 0.0
    z: 0.0
  angular: 
    x: 0.0
    y: 0.0
    z: 0.0
wrench: 
  force: 
    x: 0.0
    y: 0.0
    z: 0.0
  torque: 
    x: 0.0
    y: 0.0
    z: 0.0
---
header: 
  seq: 17256
  stamp: 
    secs: 346
    nsecs: 380000000
  frame_id: ''
pose: 
  position: 
    x: 0.700645444438
    y: 0.150835596225
    z: 0.0218803292169
  orientation: 
    x: -0.026015877822
    y: 0.999631209222
    z: 0.00623081051694
    w: 0.00466868832467
twist: 
  linear: 
    x: 0.0
    y: 0.0
    z: 0.0
  angular: 
    x: 0.0
    y: 0.0
    z: 0.0
wrench: 
  force: 
    x: 0.0
    y: 0.0
    z: 0.0
  torque: 
    x: 0.0
    y: 0.0
    z: 0.0
---
header: 
  seq: 17257
  stamp: 
    secs: 346
    nsecs: 400000000
  frame_id: ''
pose: 
  position: 
    x: 0.700643247043
    y: 0.150834002522
    z: 0.0218800219988
  orientation: 
    x: -0.0260170232226
    y: 0.999631198932
    z: 0.00622940185321
    w: 0.00466638794117
twist: 
  linear: 
    x: 0.0
    y: 0.0
    z: 0.0
  angular: 
    x: 0.0
    y: 0.0
    z: 0.0
wrench: 
  force: 
    x: 0.0
    y: 0.0
    z: 0.0
  torque: 
    x: 0.0
    y: 0.0
    z: 0.0
---
header: 
  seq: 17258
  stamp: 
    secs: 346
    nsecs: 420000000
  frame_id: ''
pose: 
  position: 
    x: 0.700643124195
    y: 0.150834757676
    z: 0.0218793998659
  orientation: 
    x: -0.0260152127973
    y: 0.999631235821
    z: 0.00623103443649
    w: 0.00466639945386
twist: 
  linear: 
    x: 0.0
    y: 0.0
    z: 0.0
  angular: 
    x: 0.0
    y: 0.0
    z: 0.0
wrench: 
  force: 
    x: 0.0
    y: 0.0
    z: 0.0
  torque: 
    x: 0.0
    y: 0.0
    z: 0.0
---
header: 
  seq: 17259
  stamp: 
    secs: 346
    nsecs: 440000000
  frame_id: ''
pose: 
  position: 
    x: 0.700643914393
    y: 0.150834706864
    z: 0.02187939933
  orientation: 
    x: -0.0260145739776
    y: 0.999631245749
    z: 0.00623144784476
    w: 0.00466728193849
twist: 
  linear: 
    x: 0.0
    y: 0.0
    z: 0.0
  angular: 
    x: 0.0
    y: 0.0
    z: 0.0
wrench: 
  force: 
    x: 0.0
    y: 0.0
    z: 0.0
  torque: 
    x: 0.0
    y: 0.0
    z: 0.0
---
header: 
  seq: 17260
  stamp: 
    secs: 346
    nsecs: 460000000
  frame_id: ''
pose: 
  position: 
    x: 0.700643751684
    y: 0.15083288863
    z: 0.0218799121384
  orientation: 
    x: -0.0260154505938
    y: 0.999631234775
    z: 0.00622963857687
    w: 0.00466716135318
twist: 
  linear: 
    x: 0.0
    y: 0.0
    z: 0.0
  angular: 
    x: 0.0
    y: 0.0
    z: 0.0
wrench: 
  force: 
    x: 0.0
    y: 0.0
    z: 0.0
  torque: 
    x: 0.0
    y: 0.0
    z: 0.0
---
header: 
  seq: 17261
  stamp: 
    secs: 346
    nsecs: 480000000
  frame_id: ''
pose: 
  position: 
    x: 0.70064377046
    y: 0.150832709524
    z: 0.0218800714731
  orientation: 
    x: -0.0260148260373
    y: 0.999631248521
    z: 0.00622993607474
    w: 0.00466730147755
twist: 
  linear: 
    x: 0.0
    y: 0.0
    z: 0.0
  angular: 
    x: 0.0
    y: 0.0
    z: 0.0
wrench: 
  force: 
    x: 0.0
    y: 0.0
    z: 0.0
  torque: 
    x: 0.0
    y: 0.0
    z: 0.0
---
header: 
  seq: 17262
  stamp: 
    secs: 346
    nsecs: 500000000
  frame_id: ''
pose: 
  position: 
    x: 0.700643943691
    y: 0.150833473598
    z: 0.0218798056617
  orientation: 
    x: -0.0260138599207
    y: 0.999631264708
    z: 0.00623118668511
    w: 0.00466755002087
twist: 
  linear: 
    x: 0.0
    y: 0.0
    z: 0.0
  angular: 
    x: 0.0
    y: 0.0
    z: 0.0
wrench: 
  force: 
    x: 0.0
    y: 0.0
    z: 0.0
  torque: 
    x: 0.0
    y: 0.0
    z: 0.0
---
header: 
  seq: 17263
  stamp: 
    secs: 346
    nsecs: 520000000
  frame_id: ''
pose: 
  position: 
    x: 0.700643356259
    y: 0.150832853523
    z: 0.021879655663
  orientation: 
    x: -0.026014406987
    y: 0.999631257783
    z: 0.00623050028398
    w: 0.00466690021448
twist: 
  linear: 
    x: 0.0
    y: 0.0
    z: 0.0
  angular: 
    x: 0.0
    y: 0.0
    z: 0.0
wrench: 
  force: 
    x: 0.0
    y: 0.0
    z: 0.0
  torque: 
    x: 0.0
    y: 0.0
    z: 0.0
---
header: 
  seq: 17264
  stamp: 
    secs: 346
    nsecs: 540000000
  frame_id: ''
pose: 
  position: 
    x: 0.700643130455
    y: 0.150832386821
    z: 0.021879702399
  orientation: 
    x: -0.0260147256324
    y: 0.99963125395
    z: 0.00622997085281
    w: 0.00466665188663
twist: 
  linear: 
    x: 0.0
    y: 0.0
    z: 0.0
  angular: 
    x: 0.0
    y: 0.0
    z: 0.0
wrench: 
  force: 
    x: 0.0
    y: 0.0
    z: 0.0
  torque: 
    x: 0.0
    y: 0.0
    z: 0.0
---
header: 
  seq: 17265
  stamp: 
    secs: 346
    nsecs: 560000000
  frame_id: ''
pose: 
  position: 
    x: 0.700643789942
    y: 0.150833023003
    z: 0.0218797725087
  orientation: 
    x: -0.0260140637833
    y: 0.99963126311
    z: 0.00623072111752
    w: 0.00466737759996
twist: 
  linear: 
    x: 0.0
    y: 0.0
    z: 0.0
  angular: 
    x: 0.0
    y: 0.0
    z: 0.0
wrench: 
  force: 
    x: 0.0
    y: 0.0
    z: 0.0
  torque: 
    x: 0.0
    y: 0.0
    z: 0.0
---
header: 
  seq: 17266
  stamp: 
    secs: 346
    nsecs: 580000000
  frame_id: ''
pose: 
  position: 
    x: 0.700643936153
    y: 0.150833146786
    z: 0.021879845594
  orientation: 
    x: -0.0260142916296
    y: 0.999631256861
    z: 0.00623068247049
    w: 0.00466749745693
twist: 
  linear: 
    x: 0.0
    y: 0.0
    z: 0.0
  angular: 
    x: 0.0
    y: 0.0
    z: 0.0
wrench: 
  force: 
    x: 0.0
    y: 0.0
    z: 0.0
  torque: 
    x: 0.0
    y: 0.0
    z: 0.0
---
header: 
  seq: 17267
  stamp: 
    secs: 346
    nsecs: 600000000
  frame_id: ''
pose: 
  position: 
    x: 0.700643490509
    y: 0.150832871298
    z: 0.0218798397097
  orientation: 
    x: -0.0260148869897
    y: 0.999631247199
    z: 0.00623013406261
    w: 0.00466698059667
twist: 
  linear: 
    x: 0.0
    y: 0.0
    z: 0.0
  angular: 
    x: 0.0
    y: 0.0
    z: 0.0
wrench: 
  force: 
    x: 0.0
    y: 0.0
    z: 0.0
  torque: 
    x: 0.0
    y: 0.0
    z: 0.0
---
header: 
  seq: 17268
  stamp: 
    secs: 346
    nsecs: 620000000
  frame_id: ''
pose: 
  position: 
    x: 0.70064352455
    y: 0.15083336476
    z: 0.0218797250564
  orientation: 
    x: -0.0260146959557
    y: 0.99963124946
    z: 0.00623055745947
    w: 0.00466699589152
twist: 
  linear: 
    x: 0.0
    y: 0.0
    z: 0.0
  angular: 
    x: 0.0
    y: 0.0
    z: 0.0
wrench: 
  force: 
    x: 0.0
    y: 0.0
    z: 0.0
  torque: 
    x: 0.0
    y: 0.0
    z: 0.0
---
header: 
  seq: 17269
  stamp: 
    secs: 346
    nsecs: 640000000
  frame_id: ''
pose: 
  position: 
    x: 0.700643786587
    y: 0.150833789869
    z: 0.0218796858365
  orientation: 
    x: -0.0260146495409
    y: 0.999631247783
    z: 0.00623084138269
    w: 0.00466723478946
twist: 
  linear: 
    x: 0.0
    y: 0.0
    z: 0.0
  angular: 
    x: 0.0
    y: 0.0
    z: 0.0
wrench: 
  force: 
    x: 0.0
    y: 0.0
    z: 0.0
  torque: 
    x: 0.0
    y: 0.0
    z: 0.0
---
header: 
  seq: 17270
  stamp: 
    secs: 346
    nsecs: 660000000
  frame_id: ''
pose: 
  position: 
    x: 0.70064371549
    y: 0.150833586645
    z: 0.0218797743654
  orientation: 
    x: -0.0260151330118
    y: 0.999631238721
    z: 0.00623036623327
    w: 0.00466711512631
twist: 
  linear: 
    x: 0.0
    y: 0.0
    z: 0.0
  angular: 
    x: 0.0
    y: 0.0
    z: 0.0
wrench: 
  force: 
    x: 0.0
    y: 0.0
    z: 0.0
  torque: 
    x: 0.0
    y: 0.0
    z: 0.0
---
header: 
  seq: 17271
  stamp: 
    secs: 346
    nsecs: 680000000
  frame_id: ''
pose: 
  position: 
    x: 0.700643715586
    y: 0.150833686195
    z: 0.021879812294
  orientation: 
    x: -0.0260152111571
    y: 0.999631236815
    z: 0.00623035629806
    w: 0.00466710105626
twist: 
  linear: 
    x: 0.0
    y: 0.0
    z: 0.0
  angular: 
    x: 0.0
    y: 0.0
    z: 0.0
wrench: 
  force: 
    x: 0.0
    y: 0.0
    z: 0.0
  torque: 
    x: 0.0
    y: 0.0
    z: 0.0
---
header: 
  seq: 17272
  stamp: 
    secs: 346
    nsecs: 700000000
  frame_id: ''
pose: 
  position: 
    x: 0.700643867495
    y: 0.150834074928
    z: 0.0218797625965
  orientation: 
    x: -0.0260149999981
    y: 0.999631239206
    z: 0.00623073781594
    w: 0.00466725671747
twist: 
  linear: 
    x: 0.0
    y: 0.0
    z: 0.0
  angular: 
    x: 0.0
    y: 0.0
    z: 0.0
wrench: 
  force: 
    x: 0.0
    y: 0.0
    z: 0.0
  torque: 
    x: 0.0
    y: 0.0
    z: 0.0
---
header: 
  seq: 17273
  stamp: 
    secs: 346
    nsecs: 720000000
  frame_id: ''
pose: 
  position: 
    x: 0.700643773028
    y: 0.150834014715
    z: 0.0218797420596
  orientation: 
    x: -0.0260152036592
    y: 0.999631235446
    z: 0.00623058238259
    w: 0.00466713439155
twist: 
  linear: 
    x: 0.0
    y: 0.0
    z: 0.0
  angular: 
    x: 0.0
    y: 0.0
    z: 0.0
wrench: 
  force: 
    x: 0.0
    y: 0.0
    z: 0.0
  torque: 
    x: 0.0
    y: 0.0
    z: 0.0
---
header: 
  seq: 17274
  stamp: 
    secs: 346
    nsecs: 740000000
